City,Cloudiness,Country,Date,Humidity,Lat,Lng,Max Temp,Wind Speed
Sitka,0,US,1559923198,66,37.17,-99.65,24.44,0.89
Hermanus,0,ZA,1559923198,71,-34.42,19.24,17.22,6.26
Torbay,90,CA,1559923199,93,47.66,-52.73,14.0,5.1
Albany,40,US,1559923199,44,42.65,-73.75,25.56,1.81
Donskoy,0,RU,1559923199,41,47.12,39.32,26.0,7.0
Rikitea,13,PF,1559923199,60,-23.12,-134.97,21.15,4.13
Thompson,90,CA,1559923200,93,55.74,-97.86,11.0,2.6
High Level,40,CA,1559923200,61,58.52,-117.13,8.0,4.1
Kruisfontein,0,ZA,1559923098,44,-34.0,24.73,15.35,2.4
Mataura,100,NZ,1559923200,83,-46.19,168.86,9.85,7.0
Hobart,0,AU,1559923017,76,-42.88,147.33,9.0,5.7
San Cristobal,75,EC,1559923203,55,-0.39,-78.55,18.0,1.5
Cidreira,99,BR,1559923204,59,-30.17,-50.22,22.05,6.31
Ushuaia,0,AR,1559923204,84,-54.81,-68.31,6.0,4.1
Yellowknife,75,CA,1559923204,65,62.45,-114.38,3.0,5.7
Vardo,90,US,1559923204,69,39.62,-77.74,25.0,2.6
Batemans Bay,0,AU,1559923205,94,-35.71,150.18,7.78,1.02
Honolulu,20,US,1559923167,73,21.3,-157.86,25.0,2.6
Sorland,75,NO,1559923099,87,67.67,12.69,12.0,5.7
Teya,75,MX,1559923205,66,21.05,-89.07,32.78,8.2
Maceio,40,BR,1559923205,61,-9.67,-35.74,28.0,4.6
Santander Jimenez,7,MX,1559923123,53,24.22,-98.47,33.05,1.6
Kaitangata,100,NZ,1559923206,59,-46.28,169.85,11.11,9.39
Khatanga,77,RU,1559923206,45,71.98,102.47,17.65,4.02
Hithadhoo,94,MV,1559923206,75,-0.6,73.08,28.85,3.9
Atuona,96,PF,1559923206,75,-9.8,-139.03,27.55,8.0
Port Elizabeth,1,US,1559923206,61,39.31,-74.98,27.78,2.6
Lisakovsk,90,KZ,1559923206,59,52.55,62.49,17.55,4.26
Vanavara,35,RU,1559923095,58,60.35,102.28,15.15,0.91
Souillac,100,FR,1559923207,63,45.6,-0.6,18.33,12.3
Polkowice,82,PL,1559923207,55,51.5,16.07,26.11,1.79
Bluff,100,AU,1559923207,78,-23.58,149.07,16.65,4.77
Kapaa,1,US,1559923147,94,22.08,-159.32,23.0,1.5
Cape Town,75,ZA,1559922964,62,-33.93,18.42,15.56,8.2
Bredasdorp,0,ZA,1559923207,45,-34.53,20.04,18.0,9.3
Qaanaaq,99,GL,1559923207,87,77.48,-69.36,-1.15,2.2
Puerto Ayora,75,EC,1559923208,78,-0.74,-90.35,25.0,9.3
Leningradskiy,95,RU,1559923208,93,69.38,178.42,1.05,0.57
Barrow,0,AR,1559923208,40,-38.31,-60.23,12.55,6.33
Dikson,0,RU,1559923027,86,73.51,80.55,-1.05,1.44
Vaini,80,IN,1559923208,81,15.34,74.49,28.35,1.62
Tiksi,11,RU,1559923208,77,71.64,128.87,0.45,1.78
Tiznit,0,MA,1559923208,79,29.7,-9.73,19.85,8.76
Jamestown,0,AU,1559923270,72,-33.21,138.6,9.75,3.28
Ilulissat,75,GL,1559923270,57,69.22,-51.1,9.0,3.6
Corinto,0,BR,1559923270,42,-18.36,-44.46,25.55,1.08
Tsiroanomandidy,33,MG,1559923270,59,-18.77,46.05,21.45,0.89
Pevek,100,RU,1559923270,81,69.7,170.27,0.35,0.72
Klaksvik,86,FO,1559923270,93,62.23,-6.59,8.0,7.2
San Patricio,88,PY,1559923271,67,-26.98,-56.83,22.95,2.73
Sabang,43,PH,1559923271,78,13.72,123.58,29.15,3.87
Hilo,1,US,1559923271,72,19.71,-155.08,19.44,2.6
Hofn,0,IS,1559923271,28,64.25,-15.21,13.0,8.2
La Baneza,40,ES,1559923271,50,42.3,-5.9,18.89,7.7
Bulgan,0,MN,1559923272,52,48.81,103.53,10.85,0.65
Bangui,100,CF,1559923272,54,4.39,18.55,30.25,1.63
Dombarovskiy,98,RU,1559923272,52,50.76,59.54,18.65,3.43
Severodvinsk,0,RU,1559923272,40,64.56,39.82,22.0,3.0
Iqaluit,75,CA,1559923272,61,63.75,-68.52,9.0,3.1
Hambantota,75,LK,1559923096,100,6.12,81.12,26.0,2.6
Vila Velha,20,BR,1559923272,48,-3.71,-38.6,31.0,8.2
Manta,100,RO,1559923272,64,45.1,24.1,25.35,2.28
Buala,90,SB,1559923273,83,-8.15,159.59,27.75,7.37
Luderitz,0,NA,1559923273,52,-26.65,15.16,20.0,7.2
Mahibadhoo,100,MV,1559923273,81,3.78,72.97,28.25,7.03
Pudozh,0,RU,1559923273,37,61.81,36.54,28.35,1.76
Juybar,75,IR,1559923273,69,36.64,52.91,28.0,4.1
Castro,75,CL,1559923274,93,-42.48,-73.76,11.0,4.1
Longyearbyen,75,NO,1559923030,74,78.22,15.63,3.0,10.3
Port Alfred,0,ZA,1559923274,32,-33.59,26.89,20.0,3.13
Vanimo,100,PG,1559923274,76,-2.67,141.3,29.05,7.96
Portland,75,US,1559923193,81,45.52,-122.67,12.78,3.1
Haines Junction,36,CA,1559923274,47,60.75,-137.51,10.55,1.7
San Quintin,100,PH,1559923274,80,17.54,120.52,27.35,2.02
Phek,98,IN,1559923274,74,25.7,94.46,26.55,1.69
Chuy,87,UY,1559923275,87,-33.69,-53.46,16.85,5.75
Chokurdakh,32,RU,1559923275,55,70.62,147.9,5.05,2.1
Leshukonskoye,0,RU,1559923275,45,64.9,45.76,18.05,4.26
Santa Rosalia,0,IT,1559923275,51,38.07,13.27,30.0,3.6
Beringovskiy,2,RU,1559923276,91,63.05,179.32,6.15,2.34
Saint-Philippe,1,CA,1559923276,38,45.36,-73.48,24.0,1.5
Punta Arenas,75,CL,1559923276,86,-53.16,-70.91,4.0,2.6
Kodiak,1,US,1559923276,61,39.95,-94.76,28.89,4.1
Butaritari,100,KI,1559923276,75,3.07,172.79,28.45,3.47
Coahuayana,100,MX,1559923276,62,18.62,-100.35,28.15,0.37
Busselton,13,AU,1559923337,68,-33.64,115.35,11.11,6.21
Grand Gaube,75,MU,1559923337,94,-20.01,57.66,23.89,4.6
Komsomolskiy,98,RU,1559923338,98,67.55,63.78,0.05,2.77
Northam,40,GB,1559923025,77,51.04,-4.21,16.11,5.7
Pontianak,75,ID,1559923338,100,-0.02,109.34,24.0,2.1
Fort Nelson,75,CA,1559923338,81,58.81,-122.69,7.0,2.6
New Norfolk,0,AU,1559923338,75,-42.78,147.06,8.0,4.6
Samarai,100,PG,1559923338,97,-10.62,150.67,23.35,2.75
Zaragoza,40,ES,1559923338,27,41.65,-0.88,24.44,3.6
Antofagasta,90,CL,1559923339,73,-23.65,-70.4,16.75,3.69
Christchurch,98,NZ,1559923331,93,-43.53,172.64,11.11,0.5
Tezu,100,IN,1559923339,78,27.93,96.16,25.65,1.74
Ponta do Sol,0,BR,1559923339,60,-20.63,-46.0,19.85,2.14
Sao Filipe,1,CV,1559923339,85,14.9,-24.5,23.15,9.57
Clyde River,75,CA,1559923339,93,70.47,-68.59,1.0,3.1
Changping,0,CN,1559923340,78,40.22,116.23,24.44,2.0
Marawi,90,PH,1559923340,86,8.0,124.29,25.56,2.68
Upernavik,18,GL,1559923340,79,72.79,-56.15,1.35,6.36
Kiama,16,AU,1559923340,100,-34.67,150.86,13.89,3.6
Karratha,7,AU,1559923202,66,-20.74,116.85,22.65,4.87
Qianan,100,CN,1559923340,80,44.99,124.06,20.85,1.57
Cairns,75,AU,1559923240,88,-16.92,145.77,22.0,6.2
Vestmanna,99,FO,1559923340,93,62.16,-7.17,8.0,7.2
Saint-Louis,75,CH,1559923341,41,47.59,7.56,25.56,4.6
Homer,1,US,1559923341,76,59.64,-151.54,14.44,1.5
Pitsunda,75,GE,1559923341,78,43.16,40.34,25.0,6.0
Ribeira Grande,40,PT,1559923341,77,38.52,-28.7,21.0,7.7
Tres Arroyos,0,AR,1559923341,40,-38.38,-60.28,12.55,6.33
Japura,100,ID,1559923342,97,-0.42,102.29,24.05,0.5
Takoradi,100,GH,1559923342,90,4.89,-1.75,25.45,2.95
Fortuna,0,ES,1559923342,47,38.18,-1.13,30.0,3.1
Ancud,75,CL,1559923102,93,-41.87,-73.83,11.0,4.1
Baruun-Urt,100,MN,1559923342,83,46.68,113.28,10.45,9.89
Kulhudhuffushi,100,MV,1559923281,80,6.62,73.07,28.75,8.55
Mareeba,75,AU,1559923342,88,-16.99,145.42,22.0,6.2
Hasaki,75,JP,1559923342,100,35.73,140.83,19.0,2.6
Huron,1,US,1559923203,61,44.36,-98.21,27.0,5.7
Bambous Virieux,75,MU,1559923343,94,-20.34,57.76,23.89,4.6
Ponta Delgada,20,PT,1559923343,63,37.73,-25.67,19.0,4.6
Ballina,75,IE,1559923343,67,54.11,-9.15,14.0,5.1
Lubaczow,33,PL,1559923343,67,50.16,23.12,23.75,1.58
Narsaq,40,GL,1559923343,24,60.91,-46.05,15.0,4.1
Anori,63,BR,1559923343,86,-3.74,-61.66,28.15,0.78
Atascadero,1,US,1559923166,82,35.49,-120.67,17.78,2.1
Opuwo,0,NA,1559923405,10,-18.06,13.84,29.95,5.69
Thunder Bay,20,CA,1559923405,58,48.41,-89.26,19.44,4.6
East London,0,ZA,1559923403,82,-33.02,27.91,13.0,1.0
Saskylakh,26,RU,1559923405,30,71.97,114.09,14.65,3.93
Tianpeng,0,CN,1559923093,66,28.88,112.34,26.95,1.52
Arraial do Cabo,0,BR,1559923405,57,-22.97,-42.02,26.0,7.7
Airai,36,TL,1559923405,79,-8.93,125.41,23.55,3.91
Esperance,20,TT,1559923405,58,10.24,-61.45,32.78,7.2
Devils Lake,1,US,1559923139,40,48.11,-98.87,30.0,11.3
Dyersburg,90,US,1559923183,94,36.03,-89.39,24.0,2.6
Saint George,20,GR,1559923406,51,39.45,22.34,34.0,4.1
Namibe,20,AO,1559923406,73,-15.19,12.15,23.0,7.2
Katangli,100,RU,1559923406,91,51.71,143.23,5.35,1.76
Sabha,0,LY,1559923406,12,27.03,14.43,36.95,5.04
Axim,100,GH,1559923406,87,4.87,-2.24,25.75,4.06
San Vicente,75,SV,1559923407,78,13.64,-88.78,28.0,3.1
Lavrentiya,6,RU,1559923407,79,65.58,-170.99,8.35,0.78
Nova Olimpia,96,BR,1559923408,43,-14.8,-57.29,30.55,1.97
Traverse City,1,US,1559923338,29,44.76,-85.62,27.22,3.6
Kavieng,96,PG,1559923408,74,-2.57,150.8,29.25,4.56
Faanui,2,PF,1559923408,76,-16.48,-151.75,27.85,6.32
Tefe,40,BR,1559923408,79,-3.35,-64.71,29.0,2.6
Vuktyl,31,RU,1559923409,41,63.86,57.31,15.55,4.18
Khash,1,IR,1559923095,14,28.22,61.21,27.05,5.48
Mae Ramat,80,TH,1559923409,89,16.98,98.52,24.85,0.81
Sorong,100,ID,1559923409,95,-0.86,131.25,25.05,0.93
Lundazi,9,ZM,1559923409,50,-12.29,33.17,22.45,3.41
Maraa,19,BR,1559923409,68,-1.83,-65.37,30.25,0.52
Cockburn Town,53,TC,1559923409,77,21.46,-71.14,28.15,4.52
Comodoro Rivadavia,0,AR,1559923410,50,-45.87,-67.48,12.0,11.3
Usinsk,0,RU,1559923410,39,66.0,57.56,13.85,3.53
Placido de Castro,10,BR,1559923410,52,-10.34,-67.19,30.95,0.25
Marmora,75,IT,1559923410,68,44.46,7.09,22.0,4.1
Tuktoyaktuk,5,CA,1559923410,70,69.44,-133.03,6.0,5.1
San Carlos de Bariloche,75,AR,1559923410,75,-41.13,-71.31,7.0,9.8
Nanortalik,9,GL,1559923410,66,60.14,-45.24,6.45,11.24
Inuvik,5,CA,1559923185,46,68.36,-133.71,12.0,2.1
Winsum,53,NL,1559923411,43,53.33,6.52,23.89,5.7
Flin Flon,90,CA,1559923411,71,54.77,-101.88,14.0,2.1
Ketchikan,90,US,1559922735,81,55.34,-131.65,12.0,3.1
Dongsheng,0,CN,1559923411,62,29.72,112.52,26.55,1.77
Johnstown,20,US,1559923217,73,40.33,-78.92,24.44,5.1
Trairi,4,BR,1559923411,58,-3.28,-39.27,28.95,3.5
Guanare,90,VE,1559923472,41,9.04,-69.74,33.15,0.21
Olavarria,0,AR,1559923473,43,-36.89,-60.32,12.05,5.72
Monterey,40,US,1559923473,71,36.6,-121.89,14.44,2.6
Kaduqli,78,SD,1559923473,38,11.01,29.72,34.25,2.45
Alanya,0,TR,1559923473,69,36.55,32.0,26.11,3.1
Vila Franca do Campo,20,PT,1559923473,63,37.72,-25.43,19.0,4.6
Aldan,100,RU,1559923474,61,58.61,125.39,13.45,1.75
Veldhoven,75,NL,1559923474,72,51.41,5.41,18.33,6.2
Alice Springs,0,AU,1559923474,64,-23.7,133.88,2.0,2.6
Tazovskiy,54,RU,1559923474,86,67.47,78.7,6.15,4.86
Kedrovyy,40,RU,1559923474,72,56.17,91.82,18.0,7.0
Lagunas,7,PE,1559923474,49,-5.23,-75.68,31.05,0.56
Severo-Kurilsk,99,RU,1559923474,97,50.68,156.12,3.95,0.65
Naze,100,NG,1559923475,74,5.43,7.07,28.95,1.06
Campo Verde,20,PE,1559923475,331,-8.47,-74.81,2.0,1.0
Puerto Carreno,75,CO,1559923025,83,6.19,-67.49,28.0,3.21
Parabel,100,RU,1559923099,56,58.71,81.5,17.55,2.39
Ihosy,0,MG,1559923475,95,-22.4,46.13,16.15,2.03
Pyshma,100,RU,1559923475,64,56.95,63.25,16.95,5.11
Zabaykalsk,100,CN,1559923475,88,49.64,117.33,13.35,5.61
Eyl,87,SO,1559923475,39,7.98,49.82,32.85,7.71
Belaya Gora,0,RU,1559923476,37,68.54,146.19,8.15,2.17
Bilma,38,NE,1559923476,11,18.69,12.92,41.25,7.22
Victor Harbor,0,AU,1559923476,71,-35.55,138.62,11.11,2.6
Laguna,20,MX,1559923476,73,27.52,-110.01,25.0,1.03
Atar,0,MR,1559923476,9,20.52,-13.05,39.0,4.1
Catuday,100,PH,1559923477,69,16.29,119.81,31.35,5.55
Sebinkarahisar,3,TR,1559923477,77,40.29,38.42,15.85,2.83
Barcelos,40,PT,1559923477,63,41.53,-8.62,18.89,3.6
Mocajuba,26,BR,1559923477,53,-2.58,-49.5,32.15,2.2
Merauke,83,ID,1559923477,80,-8.49,140.4,27.35,12.36
Caucaia,20,BR,1559923477,48,-3.73,-38.66,31.0,8.2
Avarua,48,CK,1559923477,88,-21.21,-159.78,25.0,3.1
Yerbogachen,83,RU,1559923478,63,61.28,108.01,13.35,1.41
Taybad,0,IR,1559923478,17,34.74,60.78,29.05,7.8
Stonewall,75,CA,1559923478,42,50.13,-97.33,30.0,8.7
Berdigestyakh,14,RU,1559923478,42,62.1,126.7,12.25,1.57
Abalak,100,NE,1559923478,17,15.46,6.28,40.35,1.3
Trat,100,TH,1559923478,70,12.25,102.51,30.0,0.54
Caravelas,100,BR,1559923478,84,-17.73,-39.27,23.05,1.92
Sai Buri,75,TH,1559923540,94,6.7,101.62,25.0,2.6
Karlstad,40,SE,1559923540,68,59.38,13.5,21.67,4.6
Muros,40,ES,1559923540,55,42.77,-9.06,18.89,4.6
La Sarre,0,CA,1559923540,37,48.8,-79.2,14.85,3.82
Illapel,0,CL,1559923540,45,-31.63,-71.17,15.25,4.54
Lebyazhye,20,RU,1559923540,78,59.96,29.42,26.67,1.0
Kavaratti,100,IN,1559923540,75,10.57,72.64,28.45,3.27
Piacabucu,48,BR,1559923540,83,-10.41,-36.43,26.95,2.08
Otradnyy,40,RU,1559923341,70,53.38,51.35,18.25,3.54
Salalah,40,OM,1559923541,70,17.01,54.1,31.0,3.6
Cherskiy,100,RU,1559923541,47,68.75,161.3,5.85,3.33
Sulangan,54,PH,1559923541,72,11.14,123.72,30.15,2.92
Tasiilaq,20,GL,1559923541,42,65.61,-37.64,9.0,5.7
Alyangula,90,AU,1559923541,78,-13.85,136.42,23.0,3.1
Canaveral,20,PE,1559923541,30,-13.41,-76.15,22.0,2.6
Shubarkuduk,0,KZ,1559923541,46,49.15,56.49,20.05,7.41
Fairbanks,75,US,1559923542,71,64.84,-147.72,12.22,2.1
Lompoc,40,US,1559923031,82,34.64,-120.46,17.22,5.7
Mahebourg,75,MU,1559923542,94,-20.41,57.7,23.89,4.6
Port Lincoln,0,AU,1559923542,49,-34.72,135.86,15.75,8.61
Sangar,0,RU,1559923542,45,63.92,127.47,14.15,1.87
Lorengau,100,PG,1559923094,86,-2.02,147.27,26.15,2.48
Lorut,100,AM,1559923542,80,40.94,44.77,18.95,1.34
Nome,90,US,1559923542,78,30.04,-94.42,31.67,2.6
Guerrero Negro,78,MX,1559923542,88,27.97,-114.04,17.25,4.59
Georgetown,40,GY,1559922880,78,6.8,-58.16,30.0,2.1
Florence,75,US,1559923535,74,34.8,-87.68,27.78,2.6
San Jeronimo,0,PE,1559923543,35,-13.65,-73.37,13.0,2.34
Sokoto,49,NG,1559923543,24,13.06,5.24,39.45,2.18
San Borja,0,BO,1559923543,42,-14.86,-66.75,27.75,1.02
Novyy Urengoy,28,RU,1559923543,60,66.08,76.63,13.25,6.79
Magugu,99,TZ,1559923543,82,-4.02,35.77,15.55,2.64
Norman Wells,40,CA,1559923543,57,65.28,-126.83,9.0,4.6
Southbridge,1,US,1559923543,24,42.08,-72.03,27.22,1.26
Davila,20,PH,1559923544,88,18.47,120.58,28.0,1.5
Semey,75,KZ,1559923544,67,50.41,80.25,17.0,7.0
Prince Rupert,90,CA,1559923092,93,54.32,-130.32,10.0,2.6
Fayaoue,100,NC,1559923544,73,-20.65,166.53,22.45,11.94
Eldersburg,40,US,1559923544,50,39.4,-76.95,27.0,2.6
Uporovo,100,RU,1559923544,82,56.31,66.27,15.45,2.64
Tripoli,20,GR,1559923364,25,37.51,22.37,31.0,6.2
Nikolskoye,20,RU,1559923544,78,59.7,30.79,27.78,1.0
Mar del Plata,100,AR,1559923544,66,-46.43,-67.52,9.05,11.38
Usukhchay,90,RU,1559923545,78,41.42,47.92,22.0,4.6
Rafraf,0,TN,1559923545,30,37.19,10.18,34.0,5.1
Melfort,75,CA,1559923606,100,52.87,-104.61,12.0,4.6
Saint-Augustin,75,FR,1559923606,52,44.83,-0.61,18.89,10.3
Harrison,1,US,1559923607,60,39.26,-84.82,24.44,6.7
Kalmar,0,SE,1559923607,82,56.66,16.36,25.0,7.2
Yulara,0,AU,1559923607,48,-25.24,130.99,5.0,1.5
Minden,1,US,1559923607,20,38.95,-119.77,18.0,4.6
Rudnichnyy,37,RU,1559923607,73,59.7,60.29,14.35,3.91
Vilhena,20,BR,1559923607,61,-12.74,-60.15,28.0,4.6
Turukhansk,18,RU,1559923608,41,65.8,87.96,20.25,1.71
Constitucion,5,MX,1559923608,49,23.99,-104.67,25.0,1.5
Zhigansk,51,RU,1559923026,31,66.77,123.37,14.65,2.2
Bria,94,CF,1559923608,80,6.54,21.99,24.35,2.39
Eufaula,75,US,1559923608,74,31.89,-85.15,31.67,5.1
Saravena,63,CO,1559923608,43,6.96,-71.88,30.85,1.92
Kasongo-Lunda,50,CD,1559923608,20,-6.48,16.82,30.25,1.5
Tabou,100,CI,1559923609,81,4.42,-7.36,26.95,3.17
Ryotsu,90,JP,1559923609,93,38.08,138.43,18.0,1.0
Riohacha,90,CO,1559923095,74,11.54,-72.91,30.0,3.1
Petropolis,0,BR,1559923609,60,-22.5,-43.18,28.0,2.1
Zatoka,20,PL,1559923609,54,50.04,20.52,27.78,2.1
Bafoulabe,43,ML,1559923609,10,13.81,-10.83,41.85,4.32
Pandan,84,PH,1559923610,74,11.72,122.09,29.75,4.97
Fukue,75,JP,1559923610,88,35.03,136.69,21.11,2.6
Roswell,1,US,1559923610,44,33.39,-104.52,26.11,3.1
Vostok,0,RU,1559923610,92,46.45,135.83,10.25,1.34
Gordeyevka,28,RU,1559923610,64,52.96,31.97,25.75,3.71
Abnub,0,EG,1559923610,39,27.27,31.15,35.0,9.8
Arlit,98,NE,1559923611,10,18.74,7.39,43.45,3.6
Provideniya,1,RU,1559923093,90,64.42,-173.23,3.95,1.17
Coolidge,1,US,1559923611,22,32.98,-111.52,32.22,0.93
Beni Suef,0,EG,1559923611,14,29.07,31.1,36.45,6.55
Altay,1,CN,1559923611,62,47.83,88.13,8.85,1.87
San Rafael del Sur,20,NI,1559923611,70,11.85,-86.44,30.0,4.1
Shasta Lake,1,US,1559923611,50,40.68,-122.36,17.78,3.6
Leh,45,IN,1559923611,46,34.16,77.58,1.15,1.66
Saldanha,96,PT,1559923612,37,41.42,-6.55,17.45,4.1
Noumea,75,NC,1559923612,93,-22.28,166.46,18.0,1.0
Bocana de Paiwas,39,NI,1559923612,65,12.79,-85.12,28.05,1.15
Fairview,1,US,1559923405,56,40.81,-74.0,26.11,2.1
Razole,97,IN,1559923674,84,16.48,81.84,30.25,4.43
Sao Miguel do Araguaia,100,BR,1559923483,39,-13.28,-50.16,31.15,3.74
Rusera,87,IN,1559923674,40,25.75,86.02,35.95,3.48
Victoria,75,BN,1559923674,88,5.28,115.24,27.0,0.5
Lamar,1,US,1559923675,47,38.09,-102.62,26.11,6.7
Gasa,98,BT,1559923675,91,27.91,89.73,3.75,3.25
Cotonou,20,BJ,1559923675,78,6.37,2.43,27.0,3.1
Bartica,40,GY,1559923675,70,6.41,-58.62,30.0,5.1
Coffs Harbour,75,AU,1559923675,87,-30.3,153.13,15.0,3.6
Ahuimanu,20,US,1559923675,73,21.44,-157.84,25.0,2.6
Slave Lake,90,CA,1559923675,75,55.28,-114.77,7.0,3.6
Oksfjord,0,NO,1559923676,63,70.24,22.35,18.33,3.1
Okhotsk,100,RU,1559923676,91,59.36,143.24,6.85,1.79
Panzhihua,62,CN,1559923676,55,26.59,101.72,24.35,1.76
Preobrazheniye,99,RU,1559923676,98,42.9,133.91,10.25,0.78
Mount Gambier,0,AU,1559923093,93,-37.83,140.78,7.0,5.1
Puerto Narino,75,CO,1559923676,88,-3.77,-70.38,27.0,1.0
Basco,1,US,1559923676,81,40.33,-91.2,27.78,4.1
Camacha,40,PT,1559923676,52,33.08,-16.33,21.0,6.2
Namtsy,0,RU,1559923676,66,62.72,129.66,9.0,3.0
Rosarito,75,CO,1559923677,88,4.91,-75.23,27.0,4.1
Sioux Lookout,75,CA,1559923677,49,50.1,-91.92,23.0,4.1
Pisco,20,PE,1559923677,30,-13.71,-76.2,22.0,2.6
Carnarvon,0,ZA,1559923677,24,-30.97,22.13,14.35,5.18
Takaungu,40,KE,1559923677,78,-3.68,39.86,27.0,3.6
Bremervorde,20,DE,1559923677,37,53.48,9.13,24.44,5.1
Jakarta,40,ID,1559923589,94,-6.18,106.83,25.0,2.6
Otane,55,NZ,1559923677,80,-39.89,176.62,9.44,3.13
Ostrovnoy,0,RU,1559923677,73,68.05,39.51,10.35,2.29
Porto Novo,0,BR,1559923678,60,-23.68,-45.44,20.0,1.55
Honggang,0,CN,1559923678,83,29.51,114.87,22.85,1.44
Gat,0,SN,1559923678,51,14.69,-16.54,29.0,7.2
Kapit,100,MY,1559923678,93,2.02,112.94,24.55,0.7
Troitskoye,5,RU,1559923678,69,52.98,84.68,15.75,3.25
Kazachinskoye,91,RU,1559923678,54,57.69,93.28,19.25,1.52
Elizabeth City,90,US,1559923679,74,36.3,-76.22,28.33,1.95
Udachnyy,90,RU,1559923679,71,66.42,112.4,13.0,2.0
Najran,40,SA,1559923679,23,17.54,44.22,34.0,3.6
Papara,20,BR,1559923679,48,-3.98,-38.73,31.0,8.2
Guisa,40,CU,1559923679,70,20.25,-76.54,30.0,2.1
Labuhan,59,ID,1559923679,95,-2.54,115.51,24.05,1.14
Russellville,75,US,1559923679,83,35.28,-93.13,23.89,2.1
Kuruman,0,ZA,1559923680,29,-27.46,23.43,15.56,2.17
La Roda,0,ES,1559923741,25,39.21,-2.16,25.56,7.2
Lagoa,0,PT,1559923741,49,37.14,-8.45,25.56,8.2
Banda Aceh,90,ID,1559923741,71,5.56,95.32,29.75,4.94
Birin,79,SY,1559923742,23,35.01,36.67,32.65,2.56
Broome,40,GB,1559923742,100,52.47,1.45,16.67,4.6
Katsuura,75,JP,1559923742,83,33.93,134.5,24.0,2.6
Waingapu,45,ID,1559923742,87,-9.65,120.26,22.65,3.71
Requena,20,ES,1559923742,16,39.49,-1.1,32.0,7.2
Stende,0,LV,1559923742,51,57.14,22.53,27.0,2.6
Saint-Pierre,0,FR,1559923743,77,48.95,4.24,15.0,11.8
Xai-Xai,82,MZ,1559923743,82,-25.04,33.64,21.15,2.91
Alvorada,0,BR,1559923743,57,-30.0,-51.08,26.67,3.1
Sambava,2,MG,1559923744,97,-14.27,50.17,19.85,1.44
Itaituba,40,BR,1559923744,62,-4.26,-55.99,32.0,4.6
Dodge City,1,US,1559923600,64,37.75,-100.02,25.56,1.5
Nizwa,100,OM,1559923744,14,22.93,57.53,35.75,0.13
Richards Bay,82,ZA,1559923744,71,-28.77,32.06,21.05,9.37
Daan,94,YE,1559923744,56,17.0,43.43,34.75,3.37
Luwingu,20,ZM,1559923744,49,-10.26,29.92,22.85,1.88
Majene,93,ID,1559923744,80,-3.54,118.97,28.65,9.04
Rawson,1,AR,1559923745,44,-43.3,-65.11,12.55,12.26
Sobolevo,0,RU,1559923745,69,54.43,31.9,25.35,2.99
Sioux Falls,1,US,1559923654,39,43.55,-96.7,30.0,6.2
Talnakh,0,RU,1559923745,86,69.49,88.39,4.0,9.0
Caldas Novas,68,BR,1559923745,57,-17.75,-48.62,23.55,3.3
Saint-Leu,0,RE,1559923745,69,-21.15,55.28,25.0,2.6
Nishihara,75,JP,1559923745,94,35.74,139.53,20.56,3.1
Alofi,40,NU,1559923745,94,-19.06,-169.92,24.0,2.1
Tessalit,0,ML,1559923746,5,20.2,1.01,43.45,4.09
Carauari,5,BR,1559923746,85,-4.88,-66.9,27.95,0.38
Touros,40,BR,1559923746,55,-5.2,-35.46,31.0,5.7
Porbandar,0,IN,1559923746,91,21.64,69.61,28.75,6.34
Payo,99,ID,1559923746,85,-3.75,103.64,22.25,1.08
Bethel,75,US,1559923747,93,60.79,-161.76,6.0,5.7
Havre-Saint-Pierre,20,CA,1559923747,38,50.23,-63.6,15.0,5.7
Juan Aldama,0,MX,1559923747,73,24.94,-107.82,29.44,2.24
Tuatapere,100,NZ,1559923747,74,-46.13,167.69,11.95,18.96
Acajutla,19,SV,1559923747,61,13.59,-89.83,29.65,0.34
Flic en Flac,75,MU,1559923697,94,-20.27,57.36,23.89,4.6
Anshun,99,CN,1559923748,94,26.25,105.93,19.65,2.33
Kroya,92,ID,1559923748,83,-6.5,108.06,25.15,1.83
Pochutla,20,MX,1559923748,66,15.74,-96.47,32.22,7.7
Ramachandrapuram,20,IN,1559923748,58,16.83,82.03,29.0,2.6
Carutapera,2,BR,1559923748,75,-1.2,-46.02,28.95,3.14
Waipawa,55,NZ,1559923748,80,-39.94,176.59,9.44,3.13
Shihezi,98,CN,1559923749,34,44.3,86.03,24.65,4.08
Kabanjahe,40,ID,1559923810,100,3.1,98.49,25.0,2.6
Yar-Sale,99,RU,1559923810,88,66.83,70.83,3.85,7.25
Rurrenabaque,20,BO,1559923810,69,-14.44,-67.53,27.0,2.38
Menongue,0,AO,1559923810,14,-14.66,17.68,26.35,4.09
The Valley,20,AI,1559923512,66,18.22,-63.06,30.0,5.7
Istanbul,0,TR,1559923812,32,41.01,28.95,29.0,4.1
Nouadhibou,0,MR,1559923812,56,20.93,-17.03,23.0,10.3
Tadine,59,NC,1559923812,69,-21.55,167.88,22.35,9.83
Kutum,88,SD,1559923812,25,14.2,24.66,34.05,6.93
Faya,40,SA,1559923812,21,18.39,42.45,28.0,6.7
Sovetskiy,0,RU,1559923812,62,56.76,48.47,21.45,2.57
Angoche,5,MZ,1559923813,83,-16.23,39.91,23.95,2.21
Matara,0,PE,1559923813,35,-13.74,-72.9,13.0,1.84
Borogontsy,3,RU,1559923813,47,62.67,131.17,11.95,1.3
Mana,0,RS,1559923813,51,43.52,20.24,29.0,2.6
Avera,90,US,1559923813,83,33.19,-82.53,28.0,5.7
Bilibino,94,RU,1559923813,76,68.06,166.44,3.15,2.04
Deer Lake,20,CA,1559923813,39,49.18,-57.43,17.78,6.2
Kanniyakumari,100,IN,1559923704,80,8.08,77.57,28.95,9.34
Sosnogorsk,6,RU,1559923814,56,63.59,53.93,14.05,2.45
Nirasaki,77,JP,1559923814,96,35.72,138.41,18.33,0.89
Alakurtti,90,RU,1559923814,34,66.96,30.34,26.67,3.58
Baykit,38,RU,1559923814,47,61.68,96.39,15.45,2.84
Xinan,20,CN,1559923814,70,22.55,113.89,30.0,3.6
Freeport,75,BS,1559923761,70,26.54,-78.7,31.0,3.6
Shelburne,1,CA,1559923563,52,44.08,-80.2,23.89,4.1
Port Hardy,40,CA,1559923814,87,50.7,-127.42,10.0,1.0
Oudtshoorn,0,ZA,1559923815,26,-33.59,22.2,21.0,6.7
Tomatlan,49,MX,1559923815,68,19.93,-105.25,28.55,2.3
Novonikolayevskiy,1,RU,1559923815,44,50.97,42.37,28.33,0.89
Sayaxche,54,GT,1559923815,61,16.52,-90.17,31.45,1.36
Vao,39,EE,1559923815,44,59.1,26.19,28.25,3.65
Nanpiao,73,CN,1559923815,70,41.1,120.75,20.55,2.93
Rio Gallegos,75,AR,1559923816,86,-51.62,-69.22,5.0,1.0
Praia da Vitoria,20,PT,1559923816,60,38.73,-27.07,22.0,5.82
Shahr-e Babak,3,IR,1559923816,9,30.12,55.12,31.65,4.31
Blaine,20,US,1559923706,58,45.16,-93.23,30.0,3.1
Jackville,20,CI,1559923817,62,5.21,-4.42,29.0,4.6
Dymer,100,UA,1559923817,42,50.78,30.31,29.44,3.0
Polunochnoye,84,RU,1559923817,82,60.87,60.43,12.55,3.3
Naco,1,MX,1559923817,40,31.32,-109.94,26.67,1.5
Grindavik,0,IS,1559923817,57,63.84,-22.43,13.0,9.8
Mandera,18,ET,1559923817,43,3.94,41.86,31.45,7.54
Cayenne,100,GF,1559923817,88,4.94,-52.33,26.0,4.1
Sindor,68,RU,1559923878,60,62.87,51.9,14.95,1.82
Santa Cruz de la Palma,20,ES,1559923879,60,28.68,-17.76,24.0,4.1
Ozinki,0,RU,1559923879,46,51.2,49.73,21.85,5.16
Arkhara,0,RU,1559923879,77,49.42,130.09,14.55,0.41
Vila do Maio,20,CV,1559923879,51,15.13,-23.22,28.0,9.3
Sabzevar,40,IR,1559923879,24,36.21,57.68,33.0,4.29
Sibiti,27,CG,1559923879,44,-3.69,13.35,30.15,1.51
Codrington,75,AU,1559923879,93,-28.95,153.24,14.0,1.95
Pong,40,TH,1559923880,88,12.95,100.98,31.11,3.1
Jalu,73,LY,1559923880,14,29.03,21.55,34.85,6.3
Tikrit,69,IQ,1559923880,15,34.62,43.68,39.15,8.23
Kampot,40,KH,1559923880,88,10.62,104.18,28.0,3.43
Kidal,32,ML,1559923880,7,18.44,1.41,43.95,4.79
Aksarka,1,RU,1559923880,58,66.56,67.8,7.25,7.47
Sassandra,100,CI,1559923880,82,4.95,-6.09,27.65,3.1
Cabo San Lucas,5,MX,1559923853,53,22.89,-109.91,26.67,3.6
Sisimiut,100,GL,1559923788,88,66.94,-53.67,3.55,0.57
Lithakia,0,GR,1559923881,33,37.72,20.83,30.0,4.1
Amga,0,RU,1559923881,50,60.89,131.98,10.65,1.81
Riyadh,0,SA,1559923833,7,24.63,46.72,39.65,4.04
Nhulunbuy,90,AU,1559923881,88,-12.18,136.78,24.0,6.2
Kandrian,96,PG,1559923881,91,-6.21,149.55,24.45,3.84
Arbagar,100,RU,1559923881,80,51.94,116.28,13.85,1.78
Nushki,0,PK,1559923881,8,29.55,66.02,33.05,1.78
Sao Sebastiao,20,BR,1559923881,79,-3.15,-58.36,30.0,2.6
Mackay,75,CA,1559923882,87,53.65,-115.58,6.0,2.6
Sao Jose da Coroa Grande,94,BR,1559923882,62,-8.9,-35.15,28.55,4.0
Abu Samrah,54,SY,1559923882,15,35.3,37.18,34.35,1.11
Arys,0,KZ,1559923882,37,42.43,68.8,21.0,1.0
Santa Marta,90,CO,1559923617,74,11.24,-74.21,29.0,4.1
Gorin,1,US,1559923882,85,40.36,-92.02,27.22,4.1
Dakar,0,SN,1559923588,51,14.69,-17.45,29.0,7.2
Half Moon Bay,1,US,1559923883,76,37.46,-122.43,16.11,4.6
Kabompo,0,ZM,1559923883,15,-13.6,24.21,27.65,3.27
Nakanojo,100,JP,1559923883,97,36.61,138.81,18.89,1.25
Malanje,41,AO,1559923883,21,-9.54,16.35,28.65,2.76
Nichinan,100,JP,1559923883,93,31.65,131.31,20.0,4.27
Tari,28,NG,1559923883,27,12.41,4.49,38.95,3.21
Bratsk,49,RU,1559923883,51,56.15,101.63,15.0,1.0
Rabat,20,MA,1559923654,46,34.02,-6.83,22.0,9.8
Paso de Carrasco,0,UY,1559923647,48,-34.86,-56.05,18.33,4.1
Samsun,75,TR,1559923884,78,41.29,36.33,24.0,3.1
Outlook,99,CA,1559923884,76,51.48,-107.04,13.89,6.71
Natalio,54,PY,1559923884,59,-26.76,-55.14,23.65,2.21
Mabaruma,100,GY,1559923884,90,8.2,-59.78,26.45,1.66
Xiaoweizhai,100,CN,1559923884,99,26.23,107.51,20.95,1.72
Ayan,100,TR,1559923884,70,40.67,33.6,18.05,2.88
Aksu,40,KZ,1559923946,59,52.04,76.93,17.0,6.0
Krasnyy Oktyabr,47,RU,1559923946,55,56.12,38.88,26.85,1.85
Batagay-Alyta,92,RU,1559923946,74,67.8,130.41,2.35,0.4
Leo,91,BF,1559923946,55,11.1,-2.1,32.35,4.69
Mezen,4,RU,1559923946,75,65.85,44.24,10.35,4.52
Stolbishche,85,RU,1559923946,74,52.59,35.29,24.05,4.0
Anzio,0,IT,1559923859,32,41.45,12.63,31.11,5.1
Gazojak,32,TM,1559923946,13,41.19,61.4,31.45,3.2
Maragogi,94,BR,1559923673,62,-9.01,-35.22,28.55,4.0
Ossora,100,RU,1559923947,98,59.24,163.07,4.35,3.3
Tofield,90,CA,1559923947,93,53.37,-112.67,5.0,6.7
Aklavik,20,CA,1559923947,35,68.22,-135.01,12.0,3.6
Yelniki,0,RU,1559923947,58,54.62,43.88,24.15,1.9
Meulaboh,100,ID,1559923947,69,4.14,96.13,28.85,0.87
Ukiah,1,US,1559923850,56,39.15,-123.21,15.0,3.1
Tazmalt,40,DZ,1559923947,61,36.39,4.4,25.0,4.6
Geraldton,75,CA,1559923947,45,49.72,-86.95,19.0,2.6
Tonantins,8,BR,1559923948,69,-2.86,-67.77,30.25,0.71
Havelock,75,US,1559923948,66,34.88,-76.9,29.44,2.1
Chenzhou,100,CN,1559923948,78,25.81,113.03,26.25,1.53
Almaznyy,0,RU,1559923948,41,48.03,40.04,26.0,7.0
Namakkal,98,IN,1559923909,57,11.22,78.17,31.55,6.31
Elko,1,US,1559923691,66,40.83,-115.76,16.67,2.6
Tecolutla,100,MX,1559923948,69,17.31,-98.74,20.85,0.72
Mattru,100,SL,1559923948,82,7.62,-11.83,28.65,2.72
Dingle,39,PH,1559923949,77,11.0,122.67,26.15,2.51
Lebu,40,ET,1559923949,52,8.96,38.73,21.0,2.1
Bambanglipuro,77,ID,1559923949,86,-7.95,110.28,26.35,4.51
Mount Isa,75,AU,1559923949,76,-20.73,139.49,9.0,4.07
Kieta,99,PG,1559923949,77,-6.22,155.63,27.85,8.58
Bathsheba,20,BB,1559923680,62,13.22,-59.52,31.0,8.7
Dzhebariki-Khaya,0,RU,1559923949,43,62.22,135.8,11.15,2.53
Mbandaka,37,CD,1559923950,37,0.05,18.26,32.15,1.98
Petropavlovsk-Kamchatskiy,90,RU,1559923950,93,53.05,158.65,7.0,2.0
Marquette,5,US,1559923663,56,46.54,-87.4,23.33,4.1
Le Port,20,FR,1559923951,17,42.87,1.37,22.0,4.6
Buin,0,CL,1559923951,62,-33.73,-70.74,21.11,0.5
Soyo,20,AO,1559923951,65,-6.13,12.37,28.0,3.6
Nemuro,100,JP,1559923951,95,43.32,145.57,8.95,1.0
Chandbali,100,IN,1559923951,72,20.77,86.74,31.25,2.55
Trelew,1,AR,1559923951,44,-43.25,-65.31,12.55,12.26
Zhangye,32,CN,1559923951,31,38.94,100.46,19.85,2.97
Krasnogorskoye,71,RU,1559923952,61,57.7,52.5,14.45,3.54
Norsup,99,VU,1559924013,74,-16.07,167.38,25.65,8.95
Ixtapa,75,MX,1559924013,69,20.71,-105.21,27.22,3.89
Aflao,100,TG,1559924013,84,6.12,1.19,25.75,4.02
Atambua,37,ID,1559924013,75,-9.11,124.89,27.15,8.12
Straumen,75,NO,1559924013,93,63.87,11.3,12.22,6.7
Alta Floresta,0,BR,1559924013,46,-9.87,-56.08,32.0,5.1
Xam Nua,100,LA,1559924014,78,20.42,104.04,22.55,1.23
San Miguel,0,AR,1559924016,45,-34.54,-58.72,18.33,5.1
Bontang,96,ID,1559924016,98,0.12,117.47,23.75,0.64
Iquitos,75,PE,1559924016,319,-3.75,-73.25,6.0,2.1
Aripuana,20,BR,1559924016,47,-9.17,-60.63,32.65,1.04
Prince Albert,75,CA,1559924016,93,53.2,-105.75,12.0,5.1
Amahai,52,ID,1559924016,89,-3.31,129.0,26.05,4.95
Puerto Baquerizo Moreno,75,EC,1559924017,83,-0.9,-89.6,25.0,6.7
Bongandanga,100,CD,1559924017,48,1.51,21.07,30.75,0.5
Morant Bay,20,JM,1559924017,62,17.88,-76.41,31.0,8.2
Ampanihy,0,MG,1559924017,77,-24.69,44.75,21.85,3.7
Luanda,0,AO,1559924004,73,-8.83,13.24,25.0,3.6
Hovd,75,NO,1559924017,93,63.83,10.7,12.22,6.7
Port-Cartier,90,CA,1559924017,71,50.03,-66.88,10.56,2.6
Poum,20,MK,1559924018,39,41.28,20.71,27.0,1.5
Tarbes,90,FR,1559924018,55,43.23,0.08,20.56,7.2
Ewa Beach,1,US,1559923965,73,21.32,-158.01,25.0,2.1
Hoquiam,90,US,1559924018,87,46.98,-123.89,13.89,5.7
Bay City,1,US,1559923820,60,43.59,-83.89,25.0,3.1
Sinjai,60,ID,1559924018,92,-5.12,120.25,22.95,2.46
Ikskile,75,LV,1559924019,83,56.83,24.5,23.33,4.1
Ust-Tsilma,1,RU,1559924019,61,65.44,52.15,14.85,1.97
